{"type":"FeatureCollection","features":[{"type":"Feature","id":"sapmentortweets.1","geometry":{"type":"Point","coordinates":[-76.970039,-12.155808]},"geometry_name":"the_geom","properties":{"Name":"Alvaro \"Blag\" Tejada Galindo","Descriptio":"<iframe src=\"http://mobile.twitter.com/Blag\"><\/iframe>       ]]>"}},{"type":"Feature","id":"sapmentortweets.2","geometry":{"type":"Point","coordinates":[-46.641083,-23.698921]},"geometry_name":"the_geom","properties":{"Name":"Marcelo Ramos","Descriptio":"<iframe src=\"http://mobile.twitter.com/mepmarcelo\"><\/iframe>       ]]>"}},{"type":"Feature","id":"sapmentortweets.3","geometry":{"type":"Point","coordinates":[-46.340332,-23.928524]},"geometry_name":"the_geom","properties":{"Name":"FAÅPA?A?bio Fernandes","Descriptio":"<iframe src=\"http://mobile.twitter.com/Ffernandes70\"><\/iframe>       ]]>"}},{"type":"Feature","id":"sapmentortweets.4","geometry":{"type":"Point","coordinates":[150.981644,-33.703365]},"geometry_name":"the_geom","properties":{"Name":"Graham Robbo","Descriptio":"<iframe src=\"http://mobile.twitter.com/grahamrobbo\"><\/iframe>       ]]>"}},{"type":"Feature","id":"sapmentortweets.5","geometry":{"type":"Point","coordinates":[151.083984,-33.998028]},"geometry_name":"the_geom","properties":{"Name":"Nigel James","Descriptio":"<iframe src=\"http://mobile.twitter.com/njames\"><\/iframe>       ]]>"}},{"type":"Feature","id":"sapmentortweets.6","geometry":{"type":"Point","coordinates":[144.975586,-37.822803]},"geometry_name":"the_geom","properties":{"Name":"Tony de Thomasis","Descriptio":"<iframe src=\"http://mobile.twitter.com/c821311\"><\/iframe>       ]]>"}},{"type":"Feature","id":"sapmentortweets.7","geometry":{"type":"Point","coordinates":[147.334564,-42.87999]},"geometry_name":"the_geom","properties":{"Name":"Matt Harding","Descriptio":"<iframe src=\"http://mobile.twitter.com/mattharding\"><\/iframe>       ]]>"}},{"type":"Feature","id":"sapmentortweets.8","geometry":{"type":"Point","coordinates":[77.629395,12.683215]},"geometry_name":"the_geom","properties":{"Name":"Abesh Bhattacharjee","Descriptio":"<iframe src=\"http://mobile.twitter.com/abesh\"><\/iframe>       ]]>"}},{"type":"Feature","id":"sapmentortweets.9","geometry":{"type":"Point","coordinates":[77.713448,12.960498]},"geometry_name":"the_geom","properties":{"Name":"Somnath Manna","Descriptio":"<iframe src=\"http://mobile.twitter.com/som_nath\"><\/iframe>       ]]>"}},{"type":"Feature","id":"sapmentortweets.10","geometry":{"type":"Point","coordinates":[77.600899,12.963409]},"geometry_name":"the_geom","properties":{"Name":"Mrinal Wadhwa","Descriptio":"<iframe src=\"http://mobile.twitter.com/SAPMentors\"><\/iframe>       ]]>"}},{"type":"Feature","id":"sapmentortweets.11","geometry":{"type":"Point","coordinates":[77.601929,12.968427]},"geometry_name":"the_geom","properties":{"Name":"Kartik Iyengar","Descriptio":"<iframe src=\"http://mobile.twitter.com/SAPMentors\"><\/iframe>       ]]>"}},{"type":"Feature","id":"sapmentortweets.12","geometry":{"type":"Point","coordinates":[77.34375,13.581921]},"geometry_name":"the_geom","properties":{"Name":"Shabarish  Vijayakumar","Descriptio":"<iframe src=\"http://mobile.twitter.com/SAPMentors\"><\/iframe>       ]]>"}},{"type":"Feature","id":"sapmentortweets.13","geometry":{"type":"Point","coordinates":[87.857666,22.988737]},"geometry_name":"the_geom","properties":{"Name":"Dipankar Saha","Descriptio":"<iframe src=\"http://mobile.twitter.com/SAPMentors\"><\/iframe>       ]]>"}},{"type":"Feature","id":"sapmentortweets.14","geometry":{"type":"Point","coordinates":[50.213013,26.278641]},"geometry_name":"the_geom","properties":{"Name":"Durairaj Athavan Raja","Descriptio":"<iframe src=\"http://mobile.twitter.com/athavanraja\"><\/iframe>       ]]>"}},{"type":"Feature","id":"sapmentortweets.15","geometry":{"type":"Point","coordinates":[-80.145264,26.814266]},"geometry_name":"the_geom","properties":{"Name":"Suresh Datti","Descriptio":"<iframe src=\"http://mobile.twitter.com/SAPMentors\"><\/iframe>       ]]>"}},{"type":"Feature","id":"sapmentortweets.16","geometry":{"type":"Point","coordinates":[-81.364746,28.51697]},"geometry_name":"the_geom","properties":{"Name":"Bryan Enochs","Descriptio":"<iframe src=\"http://mobile.twitter.com/SAPMentors\"><\/iframe>       ]]>"}},{"type":"Feature","id":"sapmentortweets.17","geometry":{"type":"Point","coordinates":[-95.361328,29.305561]},"geometry_name":"the_geom","properties":{"Name":"Nathan Genez","Descriptio":"<iframe src=\"http://mobile.twitter.com/NathanGenez\"><\/iframe>       ]]>"}},{"type":"Feature","id":"sapmentortweets.18","geometry":{"type":"Point","coordinates":[-98.492432,29.343876]},"geometry_name":"the_geom","properties":{"Name":"Karin Tillotson","Descriptio":"<iframe src=\"http://mobile.twitter.com/karin_tillotson\"><\/iframe>       ]]>"}},{"type":"Feature","id":"sapmentortweets.19","geometry":{"type":"Point","coordinates":[-95.361328,29.764378]},"geometry_name":"the_geom","properties":{"Name":"Gretchen Lindquist","Descriptio":"<iframe src=\"http://mobile.twitter.com/GretchenL0703\"><\/iframe>       ]]>"}},{"type":"Feature","id":"sapmentortweets.20","geometry":{"type":"Point","coordinates":[-88.821716,30.387093]},"geometry_name":"the_geom","properties":{"Name":"Ed Herrmann","Descriptio":"<iframe src=\"http://mobile.twitter.com/ewH\"><\/iframe>       ]]>"}},{"type":"Feature","id":"sapmentortweets.21","geometry":{"type":"Point","coordinates":[-81.106567,32.073265]},"geometry_name":"the_geom","properties":{"Name":"Mark Finnern","Descriptio":"<iframe src=\"http://mobile.twitter.com/finnern\"><\/iframe>       ]]>"}},{"type":"Feature","id":"sapmentortweets.22","geometry":{"type":"Point","coordinates":[-96.789551,32.805744]},"geometry_name":"the_geom","properties":{"Name":"David Rathbun","Descriptio":"<iframe src=\"http://mobile.twitter.com/SAPMentors\"><\/iframe>       ]]>"}},{"type":"Feature","id":"sapmentortweets.23","geometry":{"type":"Point","coordinates":[-96.948853,32.811516]},"geometry_name":"the_geom","properties":{"Name":"Ginger Gatling","Descriptio":"<iframe src=\"http://mobile.twitter.com/SAPMentors\"><\/iframe>       ]]>"}},{"type":"Feature","id":"sapmentortweets.24","geometry":{"type":"Point","coordinates":[-111.862793,33.339706]},"geometry_name":"the_geom","properties":{"Name":"Vijay Vijayasankar","Descriptio":"<iframe src=\"http://mobile.twitter.com/vijayasankarv\"><\/iframe>       ]]>"}},{"type":"Feature","id":"sapmentortweets.25","geometry":{"type":"Point","coordinates":[-111.895752,33.504761]},"geometry_name":"the_geom","properties":{"Name":"Harald Reiter,PMP","Descriptio":"<iframe src=\"http://mobile.twitter.com/hreiter\"><\/iframe>       ]]>"}},{"type":"Feature","id":"sapmentortweets.26","geometry":{"type":"Point","coordinates":[-86.802979,33.51392]},"geometry_name":"the_geom","properties":{"Name":"Chris Solomon","Descriptio":"<iframe src=\"http://mobile.twitter.com/SAPMentors\"><\/iframe>       ]]>"}},{"type":"Feature","id":"sapmentortweets.27","geometry":{"type":"Point","coordinates":[-82.537193,36.523434]},"geometry_name":"the_geom","properties":{"Name":"Butch McNally","Descriptio":"<iframe src=\"http://mobile.twitter.com/butchmcnally\"><\/iframe>       ]]>"}},{"type":"Feature","id":"sapmentortweets.28","geometry":{"type":"Point","coordinates":[-122.023087,37.262577]},"geometry_name":"the_geom","properties":{"Name":"Michael Bechauf","Descriptio":"<iframe src=\"http://mobile.twitter.com/SAPMentors\"><\/iframe>       ]]>"}},{"type":"Feature","id":"sapmentortweets.29","geometry":{"type":"Point","coordinates":[-121.986694,37.555466]},"geometry_name":"the_geom","properties":{"Name":"Srini Tanikella","Descriptio":"<iframe src=\"http://mobile.twitter.com/stanikella\"><\/iframe>       ]]>"}},{"type":"Feature","id":"sapmentortweets.30","geometry":{"type":"Point","coordinates":[-86.660156,38.341656]},"geometry_name":"the_geom","properties":{"Name":"Thomas Jung","Descriptio":"<iframe src=\"http://mobile.twitter.com/thomas_jung\"><\/iframe>       ]]>"}},{"type":"Feature","id":"sapmentortweets.31","geometry":{"type":"Point","coordinates":[-90.500092,38.642754]},"geometry_name":"the_geom","properties":{"Name":"Jamie Oswald","Descriptio":"<iframe src=\"http://mobile.twitter.com/oswaldxxl\"><\/iframe>       ]]>"}},{"type":"Feature","id":"sapmentortweets.32","geometry":{"type":"Point","coordinates":[-90.503571,38.758652]},"geometry_name":"the_geom","properties":{"Name":"Stephen Johannes","Descriptio":"<iframe src=\"http://mobile.twitter.com/sjohannes\"><\/iframe>       ]]>"}},{"type":"Feature","id":"sapmentortweets.33","geometry":{"type":"Point","coordinates":[-77.032761,38.932541]},"geometry_name":"the_geom","properties":{"Name":"dan mcweeney","Descriptio":"<iframe src=\"http://mobile.twitter.com/dan_mcweeney\"><\/iframe>       ]]>"}},{"type":"Feature","id":"sapmentortweets.34","geometry":{"type":"Point","coordinates":[-76.356354,39.351292]},"geometry_name":"the_geom","properties":{"Name":"Jim Spath","Descriptio":"<iframe src=\"http://mobile.twitter.com/jspath55A?A \"><\/iframe>       ]]>"}},{"type":"Feature","id":"sapmentortweets.35","geometry":{"type":"Point","coordinates":[-76.790565,39.974331]},"geometry_name":"the_geom","properties":{"Name":"Rich Heilman","Descriptio":"<iframe src=\"http://mobile.twitter.com/RichHeilman\"><\/iframe>       ]]>"}},{"type":"Feature","id":"sapmentortweets.36","geometry":{"type":"Point","coordinates":[116.407608,39.981087]},"geometry_name":"the_geom","properties":{"Name":"Lantao Yang","Descriptio":"<iframe src=\"http://mobile.twitter.com/SAPMentors\"><\/iframe>       ]]>"}},{"type":"Feature","id":"sapmentortweets.37","geometry":{"type":"Point","coordinates":[-75.455818,40.132954]},"geometry_name":"the_geom","properties":{"Name":"Greg Myers","Descriptio":"<iframe src=\"http://mobile.twitter.com/gpmyers\"><\/iframe>       ]]>"}},{"type":"Feature","id":"sapmentortweets.38","geometry":{"type":"Point","coordinates":[-3.339844,40.178871]},"geometry_name":"the_geom","properties":{"Name":"Dennis Howlett","Descriptio":"<iframe src=\"http://mobile.twitter.com/SAPMentors\"><\/iframe>       ]]>"}},{"type":"Feature","id":"sapmentortweets.39","geometry":{"type":"Point","coordinates":[-74.017639,40.904171]},"geometry_name":"the_geom","properties":{"Name":"Marilyn Pratt","Descriptio":"<iframe src=\"http://mobile.twitter.com/marilynpratt\"><\/iframe>       ]]>"}},{"type":"Feature","id":"sapmentortweets.40","geometry":{"type":"Point","coordinates":[-73.9888,40.944637]},"geometry_name":"the_geom","properties":{"Name":"Arun Varadarajan","Descriptio":"<iframe src=\"http://mobile.twitter.com/SAPMentors\"><\/iframe>       ]]>"}},{"type":"Feature","id":"sapmentortweets.41","geometry":{"type":"Point","coordinates":[-83.583984,41.656498]},"geometry_name":"the_geom","properties":{"Name":"Rob Jackson","Descriptio":"<iframe src=\"http://mobile.twitter.com/SAPMentors\"><\/iframe>       ]]>"}},{"type":"Feature","id":"sapmentortweets.42","geometry":{"type":"Point","coordinates":[-88.319092,41.759022]},"geometry_name":"the_geom","properties":{"Name":"Bhanu Gupta","Descriptio":"<iframe src=\"http://mobile.twitter.com/SAPMentors\"><\/iframe>       ]]>"}},{"type":"Feature","id":"sapmentortweets.43","geometry":{"type":"Point","coordinates":[-87.649956,41.850258]},"geometry_name":"the_geom","properties":{"Name":"Paul Taylor","Descriptio":"<iframe src=\"http://mobile.twitter.com/SAPMentors\"><\/iframe>       ]]>"}},{"type":"Feature","id":"sapmentortweets.44","geometry":{"type":"Point","coordinates":[-72.630394,42.317165]},"geometry_name":"the_geom","properties":{"Name":"Jon Reed","Descriptio":"<iframe src=\"http://mobile.twitter.com/jonerp\"><\/iframe>       ]]>"}},{"type":"Feature","id":"sapmentortweets.45","geometry":{"type":"Point","coordinates":[-71.221619,42.423458]},"geometry_name":"the_geom","properties":{"Name":"Susan Keohan","Descriptio":"<iframe src=\"http://mobile.twitter.com/skeohan\"><\/iframe>       ]]>"}},{"type":"Feature","id":"sapmentortweets.46","geometry":{"type":"Point","coordinates":[-79.387207,43.659924]},"geometry_name":"the_geom","properties":{"Name":"John Harrickey","Descriptio":"<iframe src=\"http://mobile.twitter.com/SAPMentors\"><\/iframe>       ]]>"}},{"type":"Feature","id":"sapmentortweets.47","geometry":{"type":"Point","coordinates":[-73.67157,45.506828]},"geometry_name":"the_geom","properties":{"Name":"Leonardo De Araujo","Descriptio":"<iframe src=\"http://mobile.twitter.com/SAPMentors\"><\/iframe>       ]]>"}},{"type":"Feature","id":"sapmentortweets.48","geometry":{"type":"Point","coordinates":[9.030976,45.529755]},"geometry_name":"the_geom","properties":{"Name":"Sergio Ferrari","Descriptio":"<iframe src=\"http://mobile.twitter.com/sergioferrari\"><\/iframe>       ]]>"}},{"type":"Feature","id":"sapmentortweets.49","geometry":{"type":"Point","coordinates":[8.129883,46.890232]},"geometry_name":"the_geom","properties":{"Name":"Uwe Schieferstein","Descriptio":"<iframe src=\"http://mobile.twitter.com/SAPMentors\"><\/iframe>       ]]>"}},{"type":"Feature","id":"sapmentortweets.50","geometry":{"type":"Point","coordinates":[7.580566,47.557995]},"geometry_name":"the_geom","properties":{"Name":"Julius Bussche","Descriptio":"<iframe src=\"http://mobile.twitter.com/juliusbussche\"><\/iframe>       ]]>"}}],"crs":{"type":"EPSG","properties":{"code":"900913"}}}