{"type":"FeatureCollection","features":[{"type":"Feature","id":"bitlyPoints.1","geometry":{"type":"Point","coordinates":[66.00473115,33.83523216]},"geometry_name":"the_geom","properties":{"name":"Afghanistan","country":"AF","clicks":0,"iso_a2":"AF","iso_a3":"AFG"}},{"type":"Feature","id":"bitlyPoints.2","geometry":{"type":"Point","coordinates":[19.94399236,60.23134323]},"geometry_name":"the_geom","properties":{"name":"Aland","country":"-99","clicks":0,"iso_a2":"-99","iso_a3":"ALA"}},{"type":"Feature","id":"bitlyPoints.3","geometry":{"type":"Point","coordinates":[20.04983034,41.14245128]},"geometry_name":"the_geom","properties":{"name":"Albania","country":"AL","clicks":0,"iso_a2":"AL","iso_a3":"ALB"}},{"type":"Feature","id":"bitlyPoints.4","geometry":{"type":"Point","coordinates":[2.617321016,28.15893844]},"geometry_name":"the_geom","properties":{"name":"Algeria","country":"DZ","clicks":0,"iso_a2":"DZ","iso_a3":"DZA"}},{"type":"Feature","id":"bitlyPoints.5","geometry":{"type":"Point","coordinates":[-170.7180186,-14.30448922]},"geometry_name":"the_geom","properties":{"name":"American Samoa","country":"AS","clicks":0,"iso_a2":"AS","iso_a3":"ASM"}},{"type":"Feature","id":"bitlyPoints.6","geometry":{"type":"Point","coordinates":[1.560533681,42.54229174]},"geometry_name":"the_geom","properties":{"name":"Andorra","country":"AD","clicks":0,"iso_a2":"AD","iso_a3":"AND"}},{"type":"Feature","id":"bitlyPoints.7","geometry":{"type":"Point","coordinates":[17.56443346,-12.33194922]},"geometry_name":"the_geom","properties":{"name":"Angola","country":"AO","clicks":0,"iso_a2":"AO","iso_a3":"AGO"}},{"type":"Feature","id":"bitlyPoints.8","geometry":{"type":"Point","coordinates":[-63.06498464,18.22396692]},"geometry_name":"the_geom","properties":{"name":"Anguilla","country":"AI","clicks":0,"iso_a2":"AI","iso_a3":"AIA"}},{"type":"Feature","id":"bitlyPoints.9","geometry":{"type":"Point","coordinates":[0,-90]},"geometry_name":"the_geom","properties":{"name":"Antarctica","country":"AQ","clicks":0,"iso_a2":"AQ","iso_a3":"ATA"}},{"type":"Feature","id":"bitlyPoints.10","geometry":{"type":"Point","coordinates":[-61.78996997,17.07776976]},"geometry_name":"the_geom","properties":{"name":"Antigua and Barb.","country":"AG","clicks":0,"iso_a2":"AG","iso_a3":"ATG"}},{"type":"Feature","id":"bitlyPoints.11","geometry":{"type":"Point","coordinates":[-65.15610411,-35.17996429]},"geometry_name":"the_geom","properties":{"name":"Argentina","country":"AR","clicks":0,"iso_a2":"AR","iso_a3":"ARG"}},{"type":"Feature","id":"bitlyPoints.12","geometry":{"type":"Point","coordinates":[44.92914211,40.28905814]},"geometry_name":"the_geom","properties":{"name":"Armenia","country":"AM","clicks":0,"iso_a2":"AM","iso_a3":"ARM"}},{"type":"Feature","id":"bitlyPoints.13","geometry":{"type":"Point","coordinates":[-69.98267466,12.52088881]},"geometry_name":"the_geom","properties":{"name":"Aruba","country":"AW","clicks":0,"iso_a2":"AW","iso_a3":"ABW"}},{"type":"Feature","id":"bitlyPoints.14","geometry":{"type":"Point","coordinates":[123.5838304,-12.42994255]},"geometry_name":"the_geom","properties":{"name":"Ashmore and Cartier Is.","country":"-99","clicks":0,"iso_a2":"-99","iso_a3":"-99"}},{"type":"Feature","id":"bitlyPoints.15","geometry":{"type":"Point","coordinates":[134.3551446,-25.57318002]},"geometry_name":"the_geom","properties":{"name":"Australia","country":"AU","clicks":0,"iso_a2":"AU","iso_a3":"AUS"}},{"type":"Feature","id":"bitlyPoints.16","geometry":{"type":"Point","coordinates":[14.12647809,47.58549847]},"geometry_name":"the_geom","properties":{"name":"Austria","country":"AT","clicks":0,"iso_a2":"AT","iso_a3":"AUT"}},{"type":"Feature","id":"bitlyPoints.17","geometry":{"type":"Point","coordinates":[47.66493799,40.34400258]},"geometry_name":"the_geom","properties":{"name":"Azerbaijan","country":"AZ","clicks":0,"iso_a2":"AZ","iso_a3":"AZE"}},{"type":"Feature","id":"bitlyPoints.18","geometry":{"type":"Point","coordinates":[-78.0378041,24.70138125]},"geometry_name":"the_geom","properties":{"name":"Bahamas","country":"BS","clicks":0,"iso_a2":"BS","iso_a3":"BHS"}},{"type":"Feature","id":"bitlyPoints.19","geometry":{"type":"Point","coordinates":[50.54197759,26.04200845]},"geometry_name":"the_geom","properties":{"name":"Bahrain","country":"BH","clicks":0,"iso_a2":"BH","iso_a3":"BHR"}},{"type":"Feature","id":"bitlyPoints.20","geometry":{"type":"Point","coordinates":[90.22405562,23.89751236]},"geometry_name":"the_geom","properties":{"name":"Bangladesh","country":"BD","clicks":0,"iso_a2":"BD","iso_a3":"BGD"}},{"type":"Feature","id":"bitlyPoints.21","geometry":{"type":"Point","coordinates":[-59.55980198,13.18145371]},"geometry_name":"the_geom","properties":{"name":"Barbados","country":"BB","clicks":0,"iso_a2":"BB","iso_a3":"BRB"}},{"type":"Feature","id":"bitlyPoints.22","geometry":{"type":"Point","coordinates":[28.03208711,53.53131155]},"geometry_name":"the_geom","properties":{"name":"Belarus","country":"BY","clicks":0,"iso_a2":"BY","iso_a3":"BLR"}},{"type":"Feature","id":"bitlyPoints.23","geometry":{"type":"Point","coordinates":[4.640645722,50.63981435]},"geometry_name":"the_geom","properties":{"name":"Belgium","country":"BE","clicks":0,"iso_a2":"BE","iso_a3":"BEL"}},{"type":"Feature","id":"bitlyPoints.24","geometry":{"type":"Point","coordinates":[-88.71845706,17.19473182]},"geometry_name":"the_geom","properties":{"name":"Belize","country":"BZ","clicks":0,"iso_a2":"BZ","iso_a3":"BLZ"}},{"type":"Feature","id":"bitlyPoints.25","geometry":{"type":"Point","coordinates":[2.327845268,9.641753307]},"geometry_name":"the_geom","properties":{"name":"Benin","country":"BJ","clicks":0,"iso_a2":"BJ","iso_a3":"BEN"}},{"type":"Feature","id":"bitlyPoints.26","geometry":{"type":"Point","coordinates":[-64.75454186,32.31368594]},"geometry_name":"the_geom","properties":{"name":"Bermuda","country":"BM","clicks":0,"iso_a2":"BM","iso_a3":"BMU"}},{"type":"Feature","id":"bitlyPoints.27","geometry":{"type":"Point","coordinates":[90.401895,27.4110619]},"geometry_name":"the_geom","properties":{"name":"Bhutan","country":"BT","clicks":0,"iso_a2":"BT","iso_a3":"BTN"}},{"type":"Feature","id":"bitlyPoints.28","geometry":{"type":"Point","coordinates":[-64.6853892,-16.70814536]},"geometry_name":"the_geom","properties":{"name":"Bolivia","country":"BO","clicks":0,"iso_a2":"BO","iso_a3":"BOL"}},{"type":"Feature","id":"bitlyPoints.29","geometry":{"type":"Point","coordinates":[17.76876588,44.17449912]},"geometry_name":"the_geom","properties":{"name":"Bosnia and Herz.","country":"BA","clicks":0,"iso_a2":"BA","iso_a3":"BIH"}},{"type":"Feature","id":"bitlyPoints.30","geometry":{"type":"Point","coordinates":[23.7985373,-22.18402031]},"geometry_name":"the_geom","properties":{"name":"Botswana","country":"BW","clicks":0,"iso_a2":"BW","iso_a3":"BWA"}},{"type":"Feature","id":"bitlyPoints.31","geometry":{"type":"Point","coordinates":[72.4,-7.3]},"geometry_name":"the_geom","properties":{"name":"Br. Indian Ocean Ter.","country":"IO","clicks":0,"iso_a2":"IO","iso_a3":"IOT"}},{"type":"Feature","id":"bitlyPoints.32","geometry":{"type":"Point","coordinates":[-53.1169371,-10.84047555]},"geometry_name":"the_geom","properties":{"name":"Brazil","country":"BR","clicks":0,"iso_a2":"BR","iso_a3":"BRA"}},{"type":"Feature","id":"bitlyPoints.33","geometry":{"type":"Point","coordinates":[-64.62140961,18.42300418]},"geometry_name":"the_geom","properties":{"name":"British Virgin Is.","country":"VG","clicks":0,"iso_a2":"VG","iso_a3":"VGB"}},{"type":"Feature","id":"bitlyPoints.34","geometry":{"type":"Point","coordinates":[114.5919567,4.490484953]},"geometry_name":"the_geom","properties":{"name":"Brunei","country":"BN","clicks":0,"iso_a2":"BN","iso_a3":"BRN"}},{"type":"Feature","id":"bitlyPoints.35","geometry":{"type":"Point","coordinates":[25.21552327,42.76889988]},"geometry_name":"the_geom","properties":{"name":"Bulgaria","country":"BG","clicks":0,"iso_a2":"BG","iso_a3":"BGR"}},{"type":"Feature","id":"bitlyPoints.36","geometry":{"type":"Point","coordinates":[-1.7545684,12.26953681]},"geometry_name":"the_geom","properties":{"name":"Burkina Faso","country":"BF","clicks":0,"iso_a2":"BF","iso_a3":"BFA"}},{"type":"Feature","id":"bitlyPoints.37","geometry":{"type":"Point","coordinates":[29.8751201,-3.359392566]},"geometry_name":"the_geom","properties":{"name":"Burundi","country":"BI","clicks":0,"iso_a2":"BI","iso_a3":"BDI"}},{"type":"Feature","id":"bitlyPoints.38","geometry":{"type":"Point","coordinates":[104.9079395,12.72097438]},"geometry_name":"the_geom","properties":{"name":"Cambodia","country":"KH","clicks":0,"iso_a2":"KH","iso_a3":"KHM"}},{"type":"Feature","id":"bitlyPoints.39","geometry":{"type":"Point","coordinates":[12.73964266,5.691102962]},"geometry_name":"the_geom","properties":{"name":"Cameroon","country":"CM","clicks":0,"iso_a2":"CM","iso_a3":"CMR"}},{"type":"Feature","id":"bitlyPoints.40","geometry":{"type":"Point","coordinates":[-102.3657659,57.93468217]},"geometry_name":"the_geom","properties":{"name":"Canada","country":"CA","clicks":0,"iso_a2":"CA","iso_a3":"CAN"}},{"type":"Feature","id":"bitlyPoints.41","geometry":{"type":"Point","coordinates":[-23.6371401,15.08239191]},"geometry_name":"the_geom","properties":{"name":"Cape Verde","country":"CV","clicks":0,"iso_a2":"CV","iso_a3":"CPV"}},{"type":"Feature","id":"bitlyPoints.42","geometry":{"type":"Point","coordinates":[-81.28502859,19.3208742]},"geometry_name":"the_geom","properties":{"name":"Cayman Is.","country":"KY","clicks":0,"iso_a2":"KY","iso_a3":"CYM"}},{"type":"Feature","id":"bitlyPoints.43","geometry":{"type":"Point","coordinates":[20.46826364,6.568230029]},"geometry_name":"the_geom","properties":{"name":"Central African Rep.","country":"CF","clicks":0,"iso_a2":"CF","iso_a3":"CAF"}},{"type":"Feature","id":"bitlyPoints.44","geometry":{"type":"Point","coordinates":[18.64493211,15.33333336]},"geometry_name":"the_geom","properties":{"name":"Chad","country":"TD","clicks":0,"iso_a2":"TD","iso_a3":"TCD"}},{"type":"Feature","id":"bitlyPoints.45","geometry":{"type":"Point","coordinates":[-71.31112687,-35.74804676]},"geometry_name":"the_geom","properties":{"name":"Chile","country":"CL","clicks":0,"iso_a2":"CL","iso_a3":"CHL"}},{"type":"Feature","id":"bitlyPoints.46","geometry":{"type":"Point","coordinates":[103.7974069,36.61687352]},"geometry_name":"the_geom","properties":{"name":"China","country":"CN","clicks":0,"iso_a2":"CN","iso_a3":"CHN"}},{"type":"Feature","id":"bitlyPoints.47","geometry":{"type":"Point","coordinates":[-73.08071003,3.91394648]},"geometry_name":"the_geom","properties":{"name":"Colombia","country":"CO","clicks":0,"iso_a2":"CO","iso_a3":"COL"}},{"type":"Feature","id":"bitlyPoints.48","geometry":{"type":"Point","coordinates":[43.33914194,-11.65439261]},"geometry_name":"the_geom","properties":{"name":"Comoros","country":"KM","clicks":0,"iso_a2":"KM","iso_a3":"COM"}},{"type":"Feature","id":"bitlyPoints.49","geometry":{"type":"Point","coordinates":[15.21965722,-0.837881718]},"geometry_name":"the_geom","properties":{"name":"Congo (Brazzaville)","country":"CG","clicks":0,"iso_a2":"CG","iso_a3":"COG"}},{"type":"Feature","id":"bitlyPoints.50","geometry":{"type":"Point","coordinates":[23.64395637,-2.877460126]},"geometry_name":"the_geom","properties":{"name":"Congo (Kinshasa)","country":"CD","clicks":0,"iso_a2":"CD","iso_a3":"COD"}},{"type":"Feature","id":"bitlyPoints.51","geometry":{"type":"Point","coordinates":[-159.7872415,-21.21926813]},"geometry_name":"the_geom","properties":{"name":"Cook Is.","country":"CK","clicks":0,"iso_a2":"CK","iso_a3":"COK"}},{"type":"Feature","id":"bitlyPoints.52","geometry":{"type":"Point","coordinates":[-84.19208786,9.9763424]},"geometry_name":"the_geom","properties":{"name":"Costa Rica","country":"CR","clicks":0,"iso_a2":"CR","iso_a3":"CRI"}},{"type":"Feature","id":"bitlyPoints.53","geometry":{"type":"Point","coordinates":[16.42389365,45.15944582]},"geometry_name":"the_geom","properties":{"name":"Croatia","country":"HR","clicks":0,"iso_a2":"HR","iso_a3":"HRV"}},{"type":"Feature","id":"bitlyPoints.54","geometry":{"type":"Point","coordinates":[-78.94341024,21.61424541]},"geometry_name":"the_geom","properties":{"name":"Cuba","country":"CU","clicks":0,"iso_a2":"CU","iso_a3":"CUB"}},{"type":"Feature","id":"bitlyPoints.55","geometry":{"type":"Point","coordinates":[-69,12.183333]},"geometry_name":"the_geom","properties":{"name":"Cura","country":"CW","clicks":0,"iso_a2":"CW","iso_a3":"CUW"}},{"type":"Feature","id":"bitlyPoints.56","geometry":{"type":"Point","coordinates":[33.00600358,34.91666932]},"geometry_name":"the_geom","properties":{"name":"Cyprus","country":"CY","clicks":0,"iso_a2":"CY","iso_a3":"CYP"}},{"type":"Feature","id":"bitlyPoints.57","geometry":{"type":"Point","coordinates":[15.31240065,49.73341073]},"geometry_name":"the_geom","properties":{"name":"Czech Rep.","country":"CZ","clicks":0,"iso_a2":"CZ","iso_a3":"CZE"}},{"type":"Feature","id":"bitlyPoints.58","geometry":{"type":"Point","coordinates":[9.355994944,56.24045973]},"geometry_name":"the_geom","properties":{"name":"Denmark","country":"DK","clicks":0,"iso_a2":"DK","iso_a3":"DNK"}},{"type":"Feature","id":"bitlyPoints.59","geometry":{"type":"Point","coordinates":[42.56067681,11.74872052]},"geometry_name":"the_geom","properties":{"name":"Djibouti","country":"DJ","clicks":0,"iso_a2":"DJ","iso_a3":"DJI"}},{"type":"Feature","id":"bitlyPoints.60","geometry":{"type":"Point","coordinates":[-61.35773122,15.43947211]},"geometry_name":"the_geom","properties":{"name":"Dominica","country":"DM","clicks":0,"iso_a2":"DM","iso_a3":"DMA"}},{"type":"Feature","id":"bitlyPoints.61","geometry":{"type":"Point","coordinates":[-70.50569086,18.8943308]},"geometry_name":"the_geom","properties":{"name":"Dominican Rep.","country":"DO","clicks":0,"iso_a2":"DO","iso_a3":"DOM"}},{"type":"Feature","id":"bitlyPoints.62","geometry":{"type":"Point","coordinates":[125.9229385,-8.809782664]},"geometry_name":"the_geom","properties":{"name":"East Timor","country":"TL","clicks":0,"iso_a2":"TL","iso_a3":"TLS"}},{"type":"Feature","id":"bitlyPoints.63","geometry":{"type":"Point","coordinates":[-78.38975773,-1.445376007]},"geometry_name":"the_geom","properties":{"name":"Ecuador","country":"EC","clicks":0,"iso_a2":"EC","iso_a3":"ECU"}},{"type":"Feature","id":"bitlyPoints.64","geometry":{"type":"Point","coordinates":[29.8618993,26.49593108]},"geometry_name":"the_geom","properties":{"name":"Egypt","country":"EG","clicks":0,"iso_a2":"EG","iso_a3":"EGY"}},{"type":"Feature","id":"bitlyPoints.65","geometry":{"type":"Point","coordinates":[-88.87164456,13.73944008]},"geometry_name":"the_geom","properties":{"name":"El Salvador","country":"SV","clicks":0,"iso_a2":"SV","iso_a3":"SLV"}},{"type":"Feature","id":"bitlyPoints.66","geometry":{"type":"Point","coordinates":[10.47047945,1.565204893]},"geometry_name":"the_geom","properties":{"name":"Eq. Guinea","country":"GQ","clicks":0,"iso_a2":"GQ","iso_a3":"GNQ"}},{"type":"Feature","id":"bitlyPoints.67","geometry":{"type":"Point","coordinates":[38.83794298,15.35950937]},"geometry_name":"the_geom","properties":{"name":"Eritrea","country":"ER","clicks":0,"iso_a2":"ER","iso_a3":"ERI"}},{"type":"Feature","id":"bitlyPoints.68","geometry":{"type":"Point","coordinates":[25.83216972,58.68591517]},"geometry_name":"the_geom","properties":{"name":"Estonia","country":"EE","clicks":0,"iso_a2":"EE","iso_a3":"EST"}},{"type":"Feature","id":"bitlyPoints.69","geometry":{"type":"Point","coordinates":[39.6008014,8.622784175]},"geometry_name":"the_geom","properties":{"name":"Ethiopia","country":"ET","clicks":0,"iso_a2":"ET","iso_a3":"ETH"}},{"type":"Feature","id":"bitlyPoints.70","geometry":{"type":"Point","coordinates":[-58.76048662,-51.74477317]},"geometry_name":"the_geom","properties":{"name":"Falkland Is.","country":"FK","clicks":0,"iso_a2":"FK","iso_a3":"FLK"}},{"type":"Feature","id":"bitlyPoints.71","geometry":{"type":"Point","coordinates":[-6.884745852,62.17017783]},"geometry_name":"the_geom","properties":{"name":"Faroe Is.","country":"FO","clicks":0,"iso_a2":"FO","iso_a3":"FRO"}},{"type":"Feature","id":"bitlyPoints.72","geometry":{"type":"Point","coordinates":[177.9728202,-17.82291538]},"geometry_name":"the_geom","properties":{"name":"Fiji","country":"FJ","clicks":0,"iso_a2":"FJ","iso_a3":"FJI"}},{"type":"Feature","id":"bitlyPoints.73","geometry":{"type":"Point","coordinates":[26.28355121,64.50497189]},"geometry_name":"the_geom","properties":{"name":"Finland","country":"FI","clicks":0,"iso_a2":"FI","iso_a3":"FIN"}},{"type":"Feature","id":"bitlyPoints.74","geometry":{"type":"Point","coordinates":[-149.4202463,-17.66331532]},"geometry_name":"the_geom","properties":{"name":"Fr. Polynesia","country":"PF","clicks":0,"iso_a2":"PF","iso_a3":"PYF"}},{"type":"Feature","id":"bitlyPoints.75","geometry":{"type":"Point","coordinates":[69.167,-49.25]},"geometry_name":"the_geom","properties":{"name":"Fr. S. and Antarctic Lands","country":"TF","clicks":0,"iso_a2":"TF","iso_a3":"ATF"}},{"type":"Feature","id":"bitlyPoints.76","geometry":{"type":"Point","coordinates":[2.452757377,46.62011664]},"geometry_name":"the_geom","properties":{"name":"France","country":"FR","clicks":0,"iso_a2":"FR","iso_a3":"FRA"}},{"type":"Feature","id":"bitlyPoints.77","geometry":{"type":"Point","coordinates":[11.78863005,-0.586603288]},"geometry_name":"the_geom","properties":{"name":"Gabon","country":"GA","clicks":0,"iso_a2":"GA","iso_a3":"GAB"}},{"type":"Feature","id":"bitlyPoints.78","geometry":{"type":"Point","coordinates":[-15.39601808,13.44965377]},"geometry_name":"the_geom","properties":{"name":"Gambia","country":"GM","clicks":0,"iso_a2":"GM","iso_a3":"GMB"}},{"type":"Feature","id":"bitlyPoints.79","geometry":{"type":"Point","coordinates":[34.34757119,31.39150353]},"geometry_name":"the_geom","properties":{"name":"Gaza","country":"PS","clicks":0,"iso_a2":"PS","iso_a3":"PSE"}},{"type":"Feature","id":"bitlyPoints.80","geometry":{"type":"Point","coordinates":[43.50778995,42.16855944]},"geometry_name":"the_geom","properties":{"name":"Georgia","country":"GE","clicks":0,"iso_a2":"GE","iso_a3":"GEO"}},{"type":"Feature","id":"bitlyPoints.81","geometry":{"type":"Point","coordinates":[10.37213466,51.08763721]},"geometry_name":"the_geom","properties":{"name":"Germany","country":"DE","clicks":0,"iso_a2":"DE","iso_a3":"DEU"}},{"type":"Feature","id":"bitlyPoints.82","geometry":{"type":"Point","coordinates":[-1.216769013,7.953451238]},"geometry_name":"the_geom","properties":{"name":"Ghana","country":"GH","clicks":0,"iso_a2":"GH","iso_a3":"GHA"}},{"type":"Feature","id":"bitlyPoints.83","geometry":{"type":"Point","coordinates":[22.5846388,39.4790688]},"geometry_name":"the_geom","properties":{"name":"Greece","country":"GR","clicks":0,"iso_a2":"GR","iso_a3":"GRC"}},{"type":"Feature","id":"bitlyPoints.84","geometry":{"type":"Point","coordinates":[-41.35581119,74.71759866]},"geometry_name":"the_geom","properties":{"name":"Greenland","country":"GL","clicks":0,"iso_a2":"GL","iso_a3":"GRL"}},{"type":"Feature","id":"bitlyPoints.85","geometry":{"type":"Point","coordinates":[-61.68219415,12.1172555]},"geometry_name":"the_geom","properties":{"name":"Grenada","country":"GD","clicks":0,"iso_a2":"GD","iso_a3":"GRD"}},{"type":"Feature","id":"bitlyPoints.86","geometry":{"type":"Point","coordinates":[144.7679224,13.4416655]},"geometry_name":"the_geom","properties":{"name":"Guam","country":"GU","clicks":0,"iso_a2":"GU","iso_a3":"GUM"}},{"type":"Feature","id":"bitlyPoints.87","geometry":{"type":"Point","coordinates":[-90.36482288,15.69404158]},"geometry_name":"the_geom","properties":{"name":"Guatemala","country":"GT","clicks":0,"iso_a2":"GT","iso_a3":"GTM"}},{"type":"Feature","id":"bitlyPoints.88","geometry":{"type":"Point","coordinates":[-2.572401579,49.46809855]},"geometry_name":"the_geom","properties":{"name":"Guernsey","country":"GG","clicks":0,"iso_a2":"GG","iso_a3":"GGY"}},{"type":"Feature","id":"bitlyPoints.89","geometry":{"type":"Point","coordinates":[-10.94066379,10.43621595]},"geometry_name":"the_geom","properties":{"name":"Guinea","country":"GN","clicks":0,"iso_a2":"GN","iso_a3":"GIN"}},{"type":"Feature","id":"bitlyPoints.90","geometry":{"type":"Point","coordinates":[-14.92365637,12.06395342]},"geometry_name":"the_geom","properties":{"name":"Guinea Bissau","country":"GW","clicks":0,"iso_a2":"GW","iso_a3":"GNB"}},{"type":"Feature","id":"bitlyPoints.91","geometry":{"type":"Point","coordinates":[-58.98202596,4.793780521]},"geometry_name":"the_geom","properties":{"name":"Guyana","country":"GY","clicks":0,"iso_a2":"GY","iso_a3":"GUY"}},{"type":"Feature","id":"bitlyPoints.92","geometry":{"type":"Point","coordinates":[-72.67555358,18.92828674]},"geometry_name":"the_geom","properties":{"name":"Haiti","country":"HT","clicks":0,"iso_a2":"HT","iso_a3":"HTI"}},{"type":"Feature","id":"bitlyPoints.93","geometry":{"type":"Point","coordinates":[73.516667,-53.1]},"geometry_name":"the_geom","properties":{"name":"Heard I. and McDonald Is.","country":"HM","clicks":0,"iso_a2":"HM","iso_a3":"HMD"}},{"type":"Feature","id":"bitlyPoints.94","geometry":{"type":"Point","coordinates":[-86.61582683,14.82371612]},"geometry_name":"the_geom","properties":{"name":"Honduras","country":"HN","clicks":0,"iso_a2":"HN","iso_a3":"HND"}},{"type":"Feature","id":"bitlyPoints.95","geometry":{"type":"Point","coordinates":[114.1391813,22.43918389]},"geometry_name":"the_geom","properties":{"name":"Hong Kong","country":"HK","clicks":0,"iso_a2":"HK","iso_a3":"HKG"}},{"type":"Feature","id":"bitlyPoints.96","geometry":{"type":"Point","coordinates":[19.39559381,47.16277712]},"geometry_name":"the_geom","properties":{"name":"Hungary","country":"HU","clicks":0,"iso_a2":"HU","iso_a3":"HUN"}},{"type":"Feature","id":"bitlyPoints.97","geometry":{"type":"Point","coordinates":[-18.57397086,64.99575263]},"geometry_name":"the_geom","properties":{"name":"Iceland","country":"IS","clicks":0,"iso_a2":"IS","iso_a3":"ISL"}},{"type":"Feature","id":"bitlyPoints.98","geometry":{"type":"Point","coordinates":[79.58556223,22.90909336]},"geometry_name":"the_geom","properties":{"name":"India","country":"IN","clicks":0,"iso_a2":"IN","iso_a3":"IND"}},{"type":"Feature","id":"bitlyPoints.99","geometry":{"type":"Point","coordinates":[114.014208,-0.190846328]},"geometry_name":"the_geom","properties":{"name":"Indonesia","country":"ID","clicks":0,"iso_a2":"ID","iso_a3":"IDN"}},{"type":"Feature","id":"bitlyPoints.100","geometry":{"type":"Point","coordinates":[54.27280666,32.57971296]},"geometry_name":"the_geom","properties":{"name":"Iran","country":"IR","clicks":0,"iso_a2":"IR","iso_a3":"IRN"}},{"type":"Feature","id":"bitlyPoints.101","geometry":{"type":"Point","coordinates":[43.74353204,33.03970511]},"geometry_name":"the_geom","properties":{"name":"Iraq","country":"IQ","clicks":0,"iso_a2":"IQ","iso_a3":"IRQ"}},{"type":"Feature","id":"bitlyPoints.102","geometry":{"type":"Point","coordinates":[-8.134512391,53.17403446]},"geometry_name":"the_geom","properties":{"name":"Ireland","country":"IE","clicks":0,"iso_a2":"IE","iso_a3":"IRL"}},{"type":"Feature","id":"bitlyPoints.103","geometry":{"type":"Point","coordinates":[-4.538738219,54.2241965]},"geometry_name":"the_geom","properties":{"name":"Isle of Man","country":"IM","clicks":0,"iso_a2":"IM","iso_a3":"IMN"}},{"type":"Feature","id":"bitlyPoints.104","geometry":{"type":"Point","coordinates":[35.00444995,31.4611019]},"geometry_name":"the_geom","properties":{"name":"Israel","country":"IL","clicks":0,"iso_a2":"IL","iso_a3":"ISR"}},{"type":"Feature","id":"bitlyPoints.105","geometry":{"type":"Point","coordinates":[12.14876415,43.529363]},"geometry_name":"the_geom","properties":{"name":"Italy","country":"IT","clicks":0,"iso_a2":"IT","iso_a3":"ITA"}},{"type":"Feature","id":"bitlyPoints.106","geometry":{"type":"Point","coordinates":[-5.56970926,7.62894334]},"geometry_name":"the_geom","properties":{"name":"Ivory Coast","country":"CI","clicks":0,"iso_a2":"CI","iso_a3":"CIV"}},{"type":"Feature","id":"bitlyPoints.107","geometry":{"type":"Point","coordinates":[-77.31482556,18.15695476]},"geometry_name":"the_geom","properties":{"name":"Jamaica","country":"JM","clicks":0,"iso_a2":"JM","iso_a3":"JAM"}},{"type":"Feature","id":"bitlyPoints.108","geometry":{"type":"Point","coordinates":[137.9854328,36.6500518]},"geometry_name":"the_geom","properties":{"name":"Japan","country":"JP","clicks":0,"iso_a2":"JP","iso_a3":"JPN"}},{"type":"Feature","id":"bitlyPoints.109","geometry":{"type":"Point","coordinates":[-2.126876548,49.21837488]},"geometry_name":"the_geom","properties":{"name":"Jersey","country":"JE","clicks":0,"iso_a2":"JE","iso_a3":"JEY"}},{"type":"Feature","id":"bitlyPoints.110","geometry":{"type":"Point","coordinates":[36.77137251,31.24579389]},"geometry_name":"the_geom","properties":{"name":"Jordan","country":"JO","clicks":0,"iso_a2":"JO","iso_a3":"JOR"}},{"type":"Feature","id":"bitlyPoints.111","geometry":{"type":"Point","coordinates":[67.29307766,48.15717232]},"geometry_name":"the_geom","properties":{"name":"Kazakhstan","country":"KZ","clicks":0,"iso_a2":"KZ","iso_a3":"KAZ"}},{"type":"Feature","id":"bitlyPoints.112","geometry":{"type":"Point","coordinates":[37.79521694,0.600477773]},"geometry_name":"the_geom","properties":{"name":"Kenya","country":"KE","clicks":0,"iso_a2":"KE","iso_a3":"KEN"}},{"type":"Feature","id":"bitlyPoints.113","geometry":{"type":"Point","coordinates":[-157.3741863,1.854447802]},"geometry_name":"the_geom","properties":{"name":"Kiribati","country":"KI","clicks":0,"iso_a2":"KI","iso_a3":"KIR"}},{"type":"Feature","id":"bitlyPoints.114","geometry":{"type":"Point","coordinates":[20.87249613,42.57078418]},"geometry_name":"the_geom","properties":{"name":"Kosovo","country":"XK","clicks":0,"iso_a2":"XK","iso_a3":"-99"}},{"type":"Feature","id":"bitlyPoints.115","geometry":{"type":"Point","coordinates":[47.56179005,29.31666783]},"geometry_name":"the_geom","properties":{"name":"Kuwait","country":"KW","clicks":0,"iso_a2":"KW","iso_a3":"KWT"}},{"type":"Feature","id":"bitlyPoints.116","geometry":{"type":"Point","coordinates":[74.54165548,41.46221785]},"geometry_name":"the_geom","properties":{"name":"Kyrgyzstan","country":"KG","clicks":0,"iso_a2":"KG","iso_a3":"KGZ"}},{"type":"Feature","id":"bitlyPoints.117","geometry":{"type":"Point","coordinates":[103.7377213,18.50217971]},"geometry_name":"the_geom","properties":{"name":"Laos","country":"LA","clicks":0,"iso_a2":"LA","iso_a3":"LAO"}},{"type":"Feature","id":"bitlyPoints.118","geometry":{"type":"Point","coordinates":[24.9123704,56.85085306]},"geometry_name":"the_geom","properties":{"name":"Latvia","country":"LV","clicks":0,"iso_a2":"LV","iso_a3":"LVA"}},{"type":"Feature","id":"bitlyPoints.119","geometry":{"type":"Point","coordinates":[35.88016327,33.92306993]},"geometry_name":"the_geom","properties":{"name":"Lebanon","country":"LB","clicks":0,"iso_a2":"LB","iso_a3":"LBN"}},{"type":"Feature","id":"bitlyPoints.120","geometry":{"type":"Point","coordinates":[28.22722773,-29.5800467]},"geometry_name":"the_geom","properties":{"name":"Lesotho","country":"LS","clicks":0,"iso_a2":"LS","iso_a3":"LSO"}},{"type":"Feature","id":"bitlyPoints.121","geometry":{"type":"Point","coordinates":[-9.322077806,6.45278273]},"geometry_name":"the_geom","properties":{"name":"Liberia","country":"LR","clicks":0,"iso_a2":"LR","iso_a3":"LBR"}},{"type":"Feature","id":"bitlyPoints.122","geometry":{"type":"Point","coordinates":[18.00865782,27.03094247]},"geometry_name":"the_geom","properties":{"name":"Libya","country":"LY","clicks":0,"iso_a2":"LY","iso_a3":"LBY"}},{"type":"Feature","id":"bitlyPoints.123","geometry":{"type":"Point","coordinates":[9.535735936,47.13665447]},"geometry_name":"the_geom","properties":{"name":"Liechtenstein","country":"LI","clicks":0,"iso_a2":"LI","iso_a3":"LIE"}},{"type":"Feature","id":"bitlyPoints.124","geometry":{"type":"Point","coordinates":[23.891892,55.32596149]},"geometry_name":"the_geom","properties":{"name":"Lithuania","country":"LT","clicks":0,"iso_a2":"LT","iso_a3":"LTU"}},{"type":"Feature","id":"bitlyPoints.125","geometry":{"type":"Point","coordinates":[6.071826812,49.76724687]},"geometry_name":"the_geom","properties":{"name":"Luxembourg","country":"LU","clicks":0,"iso_a2":"LU","iso_a3":"LUX"}},{"type":"Feature","id":"bitlyPoints.126","geometry":{"type":"Point","coordinates":[113.509331,22.22310807]},"geometry_name":"the_geom","properties":{"name":"Macau","country":"MO","clicks":0,"iso_a2":"MO","iso_a3":"MAC"}},{"type":"Feature","id":"bitlyPoints.127","geometry":{"type":"Point","coordinates":[21.68211343,41.59531059]},"geometry_name":"the_geom","properties":{"name":"Macedonia","country":"MK","clicks":0,"iso_a2":"MK","iso_a3":"MKD"}},{"type":"Feature","id":"bitlyPoints.128","geometry":{"type":"Point","coordinates":[46.70305514,-19.37532638]},"geometry_name":"the_geom","properties":{"name":"Madagascar","country":"MG","clicks":0,"iso_a2":"MG","iso_a3":"MDG"}},{"type":"Feature","id":"bitlyPoints.129","geometry":{"type":"Point","coordinates":[34.28880069,-13.21985854]},"geometry_name":"the_geom","properties":{"name":"Malawi","country":"MW","clicks":0,"iso_a2":"MW","iso_a3":"MWI"}},{"type":"Feature","id":"bitlyPoints.130","geometry":{"type":"Point","coordinates":[114.7237784,3.615259102]},"geometry_name":"the_geom","properties":{"name":"Malaysia","country":"MY","clicks":0,"iso_a2":"MY","iso_a3":"MYS"}},{"type":"Feature","id":"bitlyPoints.131","geometry":{"type":"Point","coordinates":[73.41089748,3.260754212]},"geometry_name":"the_geom","properties":{"name":"Maldives","country":"MV","clicks":0,"iso_a2":"MV","iso_a3":"MDV"}},{"type":"Feature","id":"bitlyPoints.132","geometry":{"type":"Point","coordinates":[-3.542687938,17.34581461]},"geometry_name":"the_geom","properties":{"name":"Mali","country":"ML","clicks":0,"iso_a2":"ML","iso_a3":"MLI"}},{"type":"Feature","id":"bitlyPoints.133","geometry":{"type":"Point","coordinates":[14.44327781,35.8900278]},"geometry_name":"the_geom","properties":{"name":"Malta","country":"MT","clicks":0,"iso_a2":"MT","iso_a3":"MLT"}},{"type":"Feature","id":"bitlyPoints.134","geometry":{"type":"Point","coordinates":[171.1863406,7.105935968]},"geometry_name":"the_geom","properties":{"name":"Marshall Is.","country":"MH","clicks":0,"iso_a2":"MH","iso_a3":"MHL"}},{"type":"Feature","id":"bitlyPoints.135","geometry":{"type":"Point","coordinates":[-10.34665913,20.25746678]},"geometry_name":"the_geom","properties":{"name":"Mauritania","country":"MR","clicks":0,"iso_a2":"MR","iso_a3":"MRT"}},{"type":"Feature","id":"bitlyPoints.136","geometry":{"type":"Point","coordinates":[57.57120758,-20.2777156]},"geometry_name":"the_geom","properties":{"name":"Mauritius","country":"MU","clicks":0,"iso_a2":"MU","iso_a3":"MUS"}},{"type":"Feature","id":"bitlyPoints.137","geometry":{"type":"Point","coordinates":[-102.5051429,23.9410224]},"geometry_name":"the_geom","properties":{"name":"Mexico","country":"MX","clicks":0,"iso_a2":"MX","iso_a3":"MEX"}},{"type":"Feature","id":"bitlyPoints.138","geometry":{"type":"Point","coordinates":[158.232506,6.885856029]},"geometry_name":"the_geom","properties":{"name":"Micronesia","country":"FM","clicks":0,"iso_a2":"FM","iso_a3":"FSM"}},{"type":"Feature","id":"bitlyPoints.139","geometry":{"type":"Point","coordinates":[28.45673742,47.19499323]},"geometry_name":"the_geom","properties":{"name":"Moldova","country":"MD","clicks":0,"iso_a2":"MD","iso_a3":"MDA"}},{"type":"Feature","id":"bitlyPoints.140","geometry":{"type":"Point","coordinates":[7.406280549,43.75276115]},"geometry_name":"the_geom","properties":{"name":"Monaco","country":"MC","clicks":0,"iso_a2":"MC","iso_a3":"MCO"}},{"type":"Feature","id":"bitlyPoints.141","geometry":{"type":"Point","coordinates":[103.0529965,46.82681435]},"geometry_name":"the_geom","properties":{"name":"Mongolia","country":"MN","clicks":0,"iso_a2":"MN","iso_a3":"MNG"}},{"type":"Feature","id":"bitlyPoints.142","geometry":{"type":"Point","coordinates":[19.2388382,42.7889115]},"geometry_name":"the_geom","properties":{"name":"Montenegro","country":"ME","clicks":0,"iso_a2":"ME","iso_a3":"MNE"}},{"type":"Feature","id":"bitlyPoints.143","geometry":{"type":"Point","coordinates":[-62.18519807,16.73941361]},"geometry_name":"the_geom","properties":{"name":"Montserrat","country":"MS","clicks":0,"iso_a2":"MS","iso_a3":"MSR"}},{"type":"Feature","id":"bitlyPoints.144","geometry":{"type":"Point","coordinates":[-8.456160446,29.83762793]},"geometry_name":"the_geom","properties":{"name":"Morocco","country":"MA","clicks":0,"iso_a2":"MA","iso_a3":"MAR"}},{"type":"Feature","id":"bitlyPoints.145","geometry":{"type":"Point","coordinates":[35.5336735,-17.27381898]},"geometry_name":"the_geom","properties":{"name":"Mozambique","country":"MZ","clicks":0,"iso_a2":"MZ","iso_a3":"MOZ"}},{"type":"Feature","id":"bitlyPoints.146","geometry":{"type":"Point","coordinates":[96.48864491,21.22148715]},"geometry_name":"the_geom","properties":{"name":"Myanmar","country":"MM","clicks":0,"iso_a2":"MM","iso_a3":"MMR"}},{"type":"Feature","id":"bitlyPoints.147","geometry":{"type":"Point","coordinates":[33.366667,35.183333]},"geometry_name":"the_geom","properties":{"name":"N. Cyprus","country":"-99","clicks":0,"iso_a2":"-99","iso_a3":"-99"}},{"type":"Feature","id":"bitlyPoints.148","geometry":{"type":"Point","coordinates":[127.1933292,40.15372143]},"geometry_name":"the_geom","properties":{"name":"N. Korea","country":"KP","clicks":0,"iso_a2":"KP","iso_a3":"PRK"}},{"type":"Feature","id":"bitlyPoints.149","geometry":{"type":"Point","coordinates":[145.7437162,15.18094108]},"geometry_name":"the_geom","properties":{"name":"N. Mariana Is.","country":"MP","clicks":0,"iso_a2":"MP","iso_a3":"MNP"}},{"type":"Feature","id":"bitlyPoints.150","geometry":{"type":"Point","coordinates":[17.20962769,-22.13030791]},"geometry_name":"the_geom","properties":{"name":"Namibia","country":"NA","clicks":0,"iso_a2":"NA","iso_a3":"NAM"}},{"type":"Feature","id":"bitlyPoints.151","geometry":{"type":"Point","coordinates":[166.9325852,-0.519141993]},"geometry_name":"the_geom","properties":{"name":"Nauru","country":"NR","clicks":0,"iso_a2":"NR","iso_a3":"NRU"}},{"type":"Feature","id":"bitlyPoints.152","geometry":{"type":"Point","coordinates":[83.9158367,28.24891362]},"geometry_name":"the_geom","properties":{"name":"Nepal","country":"NP","clicks":0,"iso_a2":"NP","iso_a3":"NPL"}},{"type":"Feature","id":"bitlyPoints.153","geometry":{"type":"Point","coordinates":[5.642136748,52.28215624]},"geometry_name":"the_geom","properties":{"name":"Netherlands","country":"NL","clicks":0,"iso_a2":"NL","iso_a3":"NLD"}},{"type":"Feature","id":"bitlyPoints.154","geometry":{"type":"Point","coordinates":[165.4866815,-21.32515728]},"geometry_name":"the_geom","properties":{"name":"New Caledonia","country":"NC","clicks":0,"iso_a2":"NC","iso_a3":"NCL"}},{"type":"Feature","id":"bitlyPoints.155","geometry":{"type":"Point","coordinates":[170.5283518,-43.97341267]},"geometry_name":"the_geom","properties":{"name":"New Zealand","country":"NZ","clicks":0,"iso_a2":"NZ","iso_a3":"NZL"}},{"type":"Feature","id":"bitlyPoints.156","geometry":{"type":"Point","coordinates":[-85.03052894,12.84709633]},"geometry_name":"the_geom","properties":{"name":"Nicaragua","country":"NI","clicks":0,"iso_a2":"NI","iso_a3":"NIC"}},{"type":"Feature","id":"bitlyPoints.157","geometry":{"type":"Point","coordinates":[9.385464539,17.41912605]},"geometry_name":"the_geom","properties":{"name":"Niger","country":"NE","clicks":0,"iso_a2":"NE","iso_a3":"NER"}},{"type":"Feature","id":"bitlyPoints.158","geometry":{"type":"Point","coordinates":[8.089606335,9.595108049]},"geometry_name":"the_geom","properties":{"name":"Nigeria","country":"NG","clicks":0,"iso_a2":"NG","iso_a3":"NGA"}},{"type":"Feature","id":"bitlyPoints.159","geometry":{"type":"Point","coordinates":[-169.8699537,-19.0494623]},"geometry_name":"the_geom","properties":{"name":"Niue","country":"NU","clicks":0,"iso_a2":"NU","iso_a3":"NIU"}},{"type":"Feature","id":"bitlyPoints.160","geometry":{"type":"Point","coordinates":[167.949202,-29.05143845]},"geometry_name":"the_geom","properties":{"name":"Norfolk Island","country":"NF","clicks":0,"iso_a2":"NF","iso_a3":"NFK"}},{"type":"Feature","id":"bitlyPoints.161","geometry":{"type":"Point","coordinates":[13.90841567,64.23783119]},"geometry_name":"the_geom","properties":{"name":"Norway","country":"NO","clicks":0,"iso_a2":"NO","iso_a3":"NOR"}},{"type":"Feature","id":"bitlyPoints.162","geometry":{"type":"Point","coordinates":[56.0853547,20.57538006]},"geometry_name":"the_geom","properties":{"name":"Oman","country":"OM","clicks":0,"iso_a2":"OM","iso_a3":"OMN"}},{"type":"Feature","id":"bitlyPoints.163","geometry":{"type":"Point","coordinates":[69.33958027,29.94975221]},"geometry_name":"the_geom","properties":{"name":"Pakistan","country":"PK","clicks":0,"iso_a2":"PK","iso_a3":"PAK"}},{"type":"Feature","id":"bitlyPoints.164","geometry":{"type":"Point","coordinates":[134.5805005,7.512980955]},"geometry_name":"the_geom","properties":{"name":"Palau","country":"PW","clicks":0,"iso_a2":"PW","iso_a3":"PLW"}},{"type":"Feature","id":"bitlyPoints.165","geometry":{"type":"Point","coordinates":[-80.11156939,8.524352957]},"geometry_name":"the_geom","properties":{"name":"Panama","country":"PA","clicks":0,"iso_a2":"PA","iso_a3":"PAN"}},{"type":"Feature","id":"bitlyPoints.166","geometry":{"type":"Point","coordinates":[144.2441134,-6.605603486]},"geometry_name":"the_geom","properties":{"name":"Papua New Guinea","country":"PG","clicks":0,"iso_a2":"PG","iso_a3":"PNG"}},{"type":"Feature","id":"bitlyPoints.167","geometry":{"type":"Point","coordinates":[-58.40014084,-23.22823896]},"geometry_name":"the_geom","properties":{"name":"Paraguay","country":"PY","clicks":0,"iso_a2":"PY","iso_a3":"PRY"}},{"type":"Feature","id":"bitlyPoints.168","geometry":{"type":"Point","coordinates":[-74.38242889,-9.152802807]},"geometry_name":"the_geom","properties":{"name":"Peru","country":"PE","clicks":0,"iso_a2":"PE","iso_a3":"PER"}},{"type":"Feature","id":"bitlyPoints.169","geometry":{"type":"Point","coordinates":[121.4155303,15.95690922]},"geometry_name":"the_geom","properties":{"name":"Philippines","country":"PH","clicks":0,"iso_a2":"PH","iso_a3":"PHL"}},{"type":"Feature","id":"bitlyPoints.170","geometry":{"type":"Point","coordinates":[-128.3170409,-24.36498595]},"geometry_name":"the_geom","properties":{"name":"Pitcairn Is.","country":"PN","clicks":0,"iso_a2":"PN","iso_a3":"PCN"}},{"type":"Feature","id":"bitlyPoints.171","geometry":{"type":"Point","coordinates":[19.39011841,52.12759537]},"geometry_name":"the_geom","properties":{"name":"Poland","country":"PL","clicks":0,"iso_a2":"PL","iso_a3":"POL"}},{"type":"Feature","id":"bitlyPoints.172","geometry":{"type":"Point","coordinates":[-7.977615497,39.6774002]},"geometry_name":"the_geom","properties":{"name":"Portugal","country":"PT","clicks":0,"iso_a2":"PT","iso_a3":"PRT"}},{"type":"Feature","id":"bitlyPoints.173","geometry":{"type":"Point","coordinates":[-66.48210011,18.23040648]},"geometry_name":"the_geom","properties":{"name":"Puerto Rico","country":"PR","clicks":0,"iso_a2":"PR","iso_a3":"PRI"}},{"type":"Feature","id":"bitlyPoints.174","geometry":{"type":"Point","coordinates":[51.18478512,25.30600936]},"geometry_name":"the_geom","properties":{"name":"Qatar","country":"QA","clicks":0,"iso_a2":"QA","iso_a3":"QAT"}},{"type":"Feature","id":"bitlyPoints.175","geometry":{"type":"Point","coordinates":[24.97293286,45.85242939]},"geometry_name":"the_geom","properties":{"name":"Romania","country":"RO","clicks":0,"iso_a2":"RO","iso_a3":"ROU"}},{"type":"Feature","id":"bitlyPoints.176","geometry":{"type":"Point","coordinates":[99.06237247,61.66149328]},"geometry_name":"the_geom","properties":{"name":"Russia","country":"RU","clicks":0,"iso_a2":"RU","iso_a3":"RUS"}},{"type":"Feature","id":"bitlyPoints.177","geometry":{"type":"Point","coordinates":[29.91989113,-1.990331993]},"geometry_name":"the_geom","properties":{"name":"Rwanda","country":"RW","clicks":0,"iso_a2":"RW","iso_a3":"RWA"}},{"type":"Feature","id":"bitlyPoints.178","geometry":{"type":"Point","coordinates":[-36.5,-54.283333]},"geometry_name":"the_geom","properties":{"name":"S. Geo. and the Islands","country":"GS","clicks":0,"iso_a2":"GS","iso_a3":"SGS"}},{"type":"Feature","id":"bitlyPoints.179","geometry":{"type":"Point","coordinates":[127.8708683,36.46069228]},"geometry_name":"the_geom","properties":{"name":"S. Korea","country":"KR","clicks":0,"iso_a2":"KR","iso_a3":"KOR"}},{"type":"Feature","id":"bitlyPoints.180","geometry":{"type":"Point","coordinates":[30.24790056,7.308775846]},"geometry_name":"the_geom","properties":{"name":"S. Sudan","country":"SS","clicks":0,"iso_a2":"SS","iso_a3":"-99"}},{"type":"Feature","id":"bitlyPoints.181","geometry":{"type":"Point","coordinates":[-5.716196812,-15.95890195]},"geometry_name":"the_geom","properties":{"name":"Saint Helena","country":"SH","clicks":0,"iso_a2":"SH","iso_a3":"SHN"}},{"type":"Feature","id":"bitlyPoints.182","geometry":{"type":"Point","coordinates":[-60.96969329,13.8947837]},"geometry_name":"the_geom","properties":{"name":"Saint Lucia","country":"LC","clicks":0,"iso_a2":"LC","iso_a3":"LCA"}},{"type":"Feature","id":"bitlyPoints.183","geometry":{"type":"Point","coordinates":[-172.4374259,-13.63079288]},"geometry_name":"the_geom","properties":{"name":"Samoa","country":"WS","clicks":0,"iso_a2":"WS","iso_a3":"WSM"}},{"type":"Feature","id":"bitlyPoints.184","geometry":{"type":"Point","coordinates":[12.45923029,43.94186939]},"geometry_name":"the_geom","properties":{"name":"San Marino","country":"SM","clicks":0,"iso_a2":"SM","iso_a3":"SMR"}},{"type":"Feature","id":"bitlyPoints.185","geometry":{"type":"Point","coordinates":[6.60659765,0.238118222]},"geometry_name":"the_geom","properties":{"name":"Sao Tome and Principe","country":"ST","clicks":0,"iso_a2":"ST","iso_a3":"STP"}},{"type":"Feature","id":"bitlyPoints.186","geometry":{"type":"Point","coordinates":[44.53894856,24.12468827]},"geometry_name":"the_geom","properties":{"name":"Saudi Arabia","country":"SA","clicks":0,"iso_a2":"SA","iso_a3":"SAU"}},{"type":"Feature","id":"bitlyPoints.187","geometry":{"type":"Point","coordinates":[-14.47348904,14.36624381]},"geometry_name":"the_geom","properties":{"name":"Senegal","country":"SN","clicks":0,"iso_a2":"SN","iso_a3":"SEN"}},{"type":"Feature","id":"bitlyPoints.188","geometry":{"type":"Point","coordinates":[20.78958121,44.22150308]},"geometry_name":"the_geom","properties":{"name":"Serbia","country":"RS","clicks":0,"iso_a2":"RS","iso_a3":"SRB"}},{"type":"Feature","id":"bitlyPoints.189","geometry":{"type":"Point","coordinates":[55.47601997,-4.66097821]},"geometry_name":"the_geom","properties":{"name":"Seychelles","country":"SC","clicks":0,"iso_a2":"SC","iso_a3":"SYC"}},{"type":"Feature","id":"bitlyPoints.190","geometry":{"type":"Point","coordinates":[-11.78508374,8.571984186]},"geometry_name":"the_geom","properties":{"name":"Sierra Leone","country":"SL","clicks":0,"iso_a2":"SL","iso_a3":"SLE"}},{"type":"Feature","id":"bitlyPoints.191","geometry":{"type":"Point","coordinates":[103.8172532,1.358770661]},"geometry_name":"the_geom","properties":{"name":"Singapore","country":"SG","clicks":0,"iso_a2":"SG","iso_a3":"SGP"}},{"type":"Feature","id":"bitlyPoints.192","geometry":{"type":"Point","coordinates":[-63.05713282,18.05081813]},"geometry_name":"the_geom","properties":{"name":"Sint Maarten","country":"SX","clicks":0,"iso_a2":"SX","iso_a3":"SXM"}},{"type":"Feature","id":"bitlyPoints.193","geometry":{"type":"Point","coordinates":[19.47905212,48.70547175]},"geometry_name":"the_geom","properties":{"name":"Slovakia","country":"SK","clicks":0,"iso_a2":"SK","iso_a3":"SVK"}},{"type":"Feature","id":"bitlyPoints.194","geometry":{"type":"Point","coordinates":[14.8044464,46.11555444]},"geometry_name":"the_geom","properties":{"name":"Slovenia","country":"SI","clicks":0,"iso_a2":"SI","iso_a3":"SVN"}},{"type":"Feature","id":"bitlyPoints.195","geometry":{"type":"Point","coordinates":[160.168945,-9.624413406]},"geometry_name":"the_geom","properties":{"name":"Solomon Is.","country":"SB","clicks":0,"iso_a2":"SB","iso_a3":"SLB"}},{"type":"Feature","id":"bitlyPoints.196","geometry":{"type":"Point","coordinates":[45.70716243,4.750651949]},"geometry_name":"the_geom","properties":{"name":"Somalia","country":"SO","clicks":0,"iso_a2":"SO","iso_a3":"SOM"}},{"type":"Feature","id":"bitlyPoints.197","geometry":{"type":"Point","coordinates":[46.25198331,9.733457946]},"geometry_name":"the_geom","properties":{"name":"Somaliland","country":"-99","clicks":0,"iso_a2":"-99","iso_a3":"-99"}},{"type":"Feature","id":"bitlyPoints.198","geometry":{"type":"Point","coordinates":[25.08067067,-28.9957927]},"geometry_name":"the_geom","properties":{"name":"South Africa","country":"ZA","clicks":0,"iso_a2":"ZA","iso_a3":"ZAF"}},{"type":"Feature","id":"bitlyPoints.199","geometry":{"type":"Point","coordinates":[-3.563365257,40.39977279]},"geometry_name":"the_geom","properties":{"name":"Spain","country":"ES","clicks":0,"iso_a2":"ES","iso_a3":"ESP"}},{"type":"Feature","id":"bitlyPoints.200","geometry":{"type":"Point","coordinates":[80.70304329,7.608572347]},"geometry_name":"the_geom","properties":{"name":"Sri Lanka","country":"LK","clicks":0,"iso_a2":"LK","iso_a3":"LKA"}},{"type":"Feature","id":"bitlyPoints.201","geometry":{"type":"Point","coordinates":[-62.84068712,17.89881045]},"geometry_name":"the_geom","properties":{"name":"St. Barthelemy","country":"BL","clicks":0,"iso_a2":"BL","iso_a3":"BLM"}},{"type":"Feature","id":"bitlyPoints.202","geometry":{"type":"Point","coordinates":[-62.74761421,17.32688848]},"geometry_name":"the_geom","properties":{"name":"St. Kitts and Nevis","country":"KN","clicks":0,"iso_a2":"KN","iso_a3":"KNA"}},{"type":"Feature","id":"bitlyPoints.203","geometry":{"type":"Point","coordinates":[-63.05971623,18.08889331]},"geometry_name":"the_geom","properties":{"name":"St. Martin","country":"MF","clicks":0,"iso_a2":"MF","iso_a3":"MAF"}},{"type":"Feature","id":"bitlyPoints.204","geometry":{"type":"Point","coordinates":[-56.32695225,46.94615723]},"geometry_name":"the_geom","properties":{"name":"St. Pierre and Miquelon","country":"PM","clicks":0,"iso_a2":"PM","iso_a3":"SPM"}},{"type":"Feature","id":"bitlyPoints.205","geometry":{"type":"Point","coordinates":[-61.19575761,13.25411743]},"geometry_name":"the_geom","properties":{"name":"St. Vin. and Gren.","country":"VC","clicks":0,"iso_a2":"VC","iso_a3":"VCT"}},{"type":"Feature","id":"bitlyPoints.206","geometry":{"type":"Point","coordinates":[29.94047226,15.99035431]},"geometry_name":"the_geom","properties":{"name":"Sudan","country":"SD","clicks":0,"iso_a2":"SD","iso_a3":"SDN"}},{"type":"Feature","id":"bitlyPoints.207","geometry":{"type":"Point","coordinates":[-55.91234833,4.130553772]},"geometry_name":"the_geom","properties":{"name":"Suriname","country":"SR","clicks":0,"iso_a2":"SR","iso_a3":"SUR"}},{"type":"Feature","id":"bitlyPoints.208","geometry":{"type":"Point","coordinates":[31.48193159,-26.55842734]},"geometry_name":"the_geom","properties":{"name":"Swaziland","country":"SZ","clicks":0,"iso_a2":"SZ","iso_a3":"SWZ"}},{"type":"Feature","id":"bitlyPoints.209","geometry":{"type":"Point","coordinates":[16.73307536,62.83810345]},"geometry_name":"the_geom","properties":{"name":"Sweden","country":"SE","clicks":0,"iso_a2":"SE","iso_a3":"SWE"}},{"type":"Feature","id":"bitlyPoints.210","geometry":{"type":"Point","coordinates":[8.208660065,46.79785296]},"geometry_name":"the_geom","properties":{"name":"Switzerland","country":"CH","clicks":0,"iso_a2":"CH","iso_a3":"CHE"}},{"type":"Feature","id":"bitlyPoints.211","geometry":{"type":"Point","coordinates":[38.50787939,35.02547248]},"geometry_name":"the_geom","properties":{"name":"Syria","country":"SY","clicks":0,"iso_a2":"SY","iso_a3":"SYR"}},{"type":"Feature","id":"bitlyPoints.212","geometry":{"type":"Point","coordinates":[121.633333,25.033333]},"geometry_name":"the_geom","properties":{"name":"Taiwan","country":"TW","clicks":0,"iso_a2":"TW","iso_a3":"TWN"}},{"type":"Feature","id":"bitlyPoints.213","geometry":{"type":"Point","coordinates":[71.01410446,38.5286327]},"geometry_name":"the_geom","properties":{"name":"Tajikistan","country":"TJ","clicks":0,"iso_a2":"TJ","iso_a3":"TJK"}},{"type":"Feature","id":"bitlyPoints.214","geometry":{"type":"Point","coordinates":[34.79814861,-6.27642477]},"geometry_name":"the_geom","properties":{"name":"Tanzania","country":"TZ","clicks":0,"iso_a2":"TZ","iso_a3":"TZA"}},{"type":"Feature","id":"bitlyPoints.215","geometry":{"type":"Point","coordinates":[101.0064454,15.13416411]},"geometry_name":"the_geom","properties":{"name":"Thailand","country":"TH","clicks":0,"iso_a2":"TH","iso_a3":"THA"}},{"type":"Feature","id":"bitlyPoints.216","geometry":{"type":"Point","coordinates":[0.96232118,8.525297976]},"geometry_name":"the_geom","properties":{"name":"Togo","country":"TG","clicks":0,"iso_a2":"TG","iso_a3":"TGO"}},{"type":"Feature","id":"bitlyPoints.217","geometry":{"type":"Point","coordinates":[-175.217118,-21.16662241]},"geometry_name":"the_geom","properties":{"name":"Tonga","country":"TO","clicks":0,"iso_a2":"TO","iso_a3":"TON"}},{"type":"Feature","id":"bitlyPoints.218","geometry":{"type":"Point","coordinates":[-61.29301968,10.42110163]},"geometry_name":"the_geom","properties":{"name":"Trinidad and Tobago","country":"TT","clicks":0,"iso_a2":"TT","iso_a3":"TTO"}},{"type":"Feature","id":"bitlyPoints.219","geometry":{"type":"Point","coordinates":[9.547804387,34.12022011]},"geometry_name":"the_geom","properties":{"name":"Tunisia","country":"TN","clicks":0,"iso_a2":"TN","iso_a3":"TUN"}},{"type":"Feature","id":"bitlyPoints.220","geometry":{"type":"Point","coordinates":[35.42202766,38.99070639]},"geometry_name":"the_geom","properties":{"name":"Turkey","country":"TR","clicks":0,"iso_a2":"TR","iso_a3":"TUR"}},{"type":"Feature","id":"bitlyPoints.221","geometry":{"type":"Point","coordinates":[59.37250204,39.11558068]},"geometry_name":"the_geom","properties":{"name":"Turkmenistan","country":"TM","clicks":0,"iso_a2":"TM","iso_a3":"TKM"}},{"type":"Feature","id":"bitlyPoints.222","geometry":{"type":"Point","coordinates":[-71.74139945,21.8116954]},"geometry_name":"the_geom","properties":{"name":"Turks and Caicos Is.","country":"TC","clicks":0,"iso_a2":"TC","iso_a3":"TCA"}},{"type":"Feature","id":"bitlyPoints.223","geometry":{"type":"Point","coordinates":[-64.77161445,17.74127601]},"geometry_name":"the_geom","properties":{"name":"U.S. Virgin Is.","country":"VI","clicks":0,"iso_a2":"VI","iso_a3":"VIR"}},{"type":"Feature","id":"bitlyPoints.224","geometry":{"type":"Point","coordinates":[32.36907536,1.274690237]},"geometry_name":"the_geom","properties":{"name":"Uganda","country":"UG","clicks":0,"iso_a2":"UG","iso_a3":"UGA"}},{"type":"Feature","id":"bitlyPoints.225","geometry":{"type":"Point","coordinates":[31.38312588,48.99748204]},"geometry_name":"the_geom","properties":{"name":"Ukraine","country":"UA","clicks":0,"iso_a2":"UA","iso_a3":"UKR"}},{"type":"Feature","id":"bitlyPoints.226","geometry":{"type":"Point","coordinates":[54.30548308,23.90239882]},"geometry_name":"the_geom","properties":{"name":"United Arab Emirates","country":"AE","clicks":0,"iso_a2":"AE","iso_a3":"ARE"}},{"type":"Feature","id":"bitlyPoints.227","geometry":{"type":"Point","coordinates":[-2.50688969,53.93779797]},"geometry_name":"the_geom","properties":{"name":"United Kingdom","country":"GB","clicks":0,"iso_a2":"GB","iso_a3":"GBR"}},{"type":"Feature","id":"bitlyPoints.228","geometry":{"type":"Point","coordinates":[-99.14386771,39.52654497]},"geometry_name":"the_geom","properties":{"name":"United States","country":"US","clicks":0,"iso_a2":"US","iso_a3":"USA"}},{"type":"Feature","id":"bitlyPoints.229","geometry":{"type":"Point","coordinates":[-56.01806795,-32.79951983]},"geometry_name":"the_geom","properties":{"name":"Uruguay","country":"UY","clicks":0,"iso_a2":"UY","iso_a3":"URY"}},{"type":"Feature","id":"bitlyPoints.230","geometry":{"type":"Point","coordinates":[63.13226933,41.75723876]},"geometry_name":"the_geom","properties":{"name":"Uzbekistan","country":"UZ","clicks":0,"iso_a2":"UZ","iso_a3":"UZB"}},{"type":"Feature","id":"bitlyPoints.231","geometry":{"type":"Point","coordinates":[166.8497797,-15.22547389]},"geometry_name":"the_geom","properties":{"name":"Vanuatu","country":"VU","clicks":0,"iso_a2":"VU","iso_a3":"VUT"}},{"type":"Feature","id":"bitlyPoints.232","geometry":{"type":"Point","coordinates":[12.43386255,41.90174097]},"geometry_name":"the_geom","properties":{"name":"Vatican","country":"VA","clicks":0,"iso_a2":"VA","iso_a3":"VAT"}},{"type":"Feature","id":"bitlyPoints.233","geometry":{"type":"Point","coordinates":[-66.18692811,7.118526431]},"geometry_name":"the_geom","properties":{"name":"Venezuela","country":"VE","clicks":0,"iso_a2":"VE","iso_a3":"VEN"}},{"type":"Feature","id":"bitlyPoints.234","geometry":{"type":"Point","coordinates":[106.3011812,16.65169555]},"geometry_name":"the_geom","properties":{"name":"Vietnam","country":"VN","clicks":0,"iso_a2":"VN","iso_a3":"VNM"}},{"type":"Feature","id":"bitlyPoints.235","geometry":{"type":"Point","coordinates":[-12.2198297,24.22956357]},"geometry_name":"the_geom","properties":{"name":"W. Sahara","country":"EH","clicks":0,"iso_a2":"EH","iso_a3":"-99"}},{"type":"Feature","id":"bitlyPoints.236","geometry":{"type":"Point","coordinates":[-178.129564,-14.28572918]},"geometry_name":"the_geom","properties":{"name":"Wallis and Futuna","country":"WF","clicks":0,"iso_a2":"WF","iso_a3":"WLF"}},{"type":"Feature","id":"bitlyPoints.237","geometry":{"type":"Point","coordinates":[35.24782134,31.94798033]},"geometry_name":"the_geom","properties":{"name":"West Bank","country":"PS","clicks":0,"iso_a2":"PS","iso_a3":"PSE"}},{"type":"Feature","id":"bitlyPoints.238","geometry":{"type":"Point","coordinates":[47.54063934,15.93600844]},"geometry_name":"the_geom","properties":{"name":"Yemen","country":"YE","clicks":0,"iso_a2":"YE","iso_a3":"YEM"}},{"type":"Feature","id":"bitlyPoints.239","geometry":{"type":"Point","coordinates":[27.77475082,-13.45824537]},"geometry_name":"the_geom","properties":{"name":"Zambia","country":"ZM","clicks":0,"iso_a2":"ZM","iso_a3":"ZMB"}},{"type":"Feature","id":"bitlyPoints.240","geometry":{"type":"Point","coordinates":[29.85145031,-19.00420587]},"geometry_name":"the_geom","properties":{"name":"Zimbabwe","country":"ZW","clicks":0,"iso_a2":"ZW","iso_a3":"ZWE"}}],"crs":{"type":"EPSG","properties":{"code":"4326"}}}
